[{
	"id": 1,
	"latitude":" 56.12",
	"lonitude": "56.12",
	"phone": "1234",
	"storeName": "padberg, Thiel and Ludowitz",
	"zipCosde": "662970"
},
{
	"id": 2,
	"latitude": "56.1234",
	"lonitude": "23.12",
	"phone": "05257675251",
	"storeName": "colses",
	"zipCosde": "230"
},
{
	"id": 3,
	"latitude": "26.12",
	"lonitude":" 4.12",
	"phone":"457",
	"storeName": "food",
	"zipCosde": "6970"
},
{
	"id": 4,
	"latitude": "3.12",
	"lonitude": "4.2312",
	"phone": "78965",
	"storeName": "toy",
	"zipCosde": "70"
},
{
	"id":5,
	"latitude": "45.12",
	"lonitude": "2.8982",
	"phone": "12889834",
	"storeName": "shop shop",
	"zipCosde": "456"
},
{
	"id": 6,
	"latitude": "16.12",
	"lonitude":"23.345",
	"phone": "234",
	"storeName": "soperMarket",
	"zipCosde": "5970"
},
{
	"id": 7,
	"latitude": "56.121234",
	"lonitude":"13.5678",
	"phone": "6552",
	"storeName": "bar col",
	"zipCosde": "67970"
}]